{ "name": "George St", "city": "Sydney", "code": "246", "street": "The Ivy", "state": "NSW", "zip": "", "phone": "13 11 75", "fax": "13 11 75", "coordinates":[ 151.207267,-33.866618 ]},
{ "name": "Pitt St Sydney", "city": "Sydney", "code": "210", "street": "56 Pitt Street", "state": "NSW", "zip": "", "phone": "13 11 75", "fax": "13 11 75", "coordinates":[ 151.209089,-33.863699 ]},
{ "name": "Haymarket", "city": "Haymarket", "code": "4428", "street": "", "state": "NSW", "zip": "", "phone": "13 11 75", "fax": "13 11 75", "coordinates":[ 151.205705,-33.878812 ]},
{ "name": "North Sydney", "city": "North Sydney", "code": "143", "street": "Shop 7", "state": "NSW", "zip": "", "phone": "13 11 75", "fax": "13 11 75", "coordinates":[ 151.208412,-33.840251 ]},
{ "name": "Neutral Bay", "city": "Neutral Bay", "code": "215", "street": "", "state": "NSW", "zip": "", "phone": "13 11 75", "fax": "13 11 75", "coordinates":[ 151.2224788,-33.8316747 ]},
{ "name": "Bondi Junction", "city": "Bondi Junction", "code": "147", "street": "Westfield Shop 1008", "state": "NSW", "zip": "", "phone": "13 11 75", "fax": "13 11 75", "coordinates":[ 151.250748,-33.891859 ]},
{ "name": "Marrickville", "city": "Marrickville", "code": "179", "street": "Shop 29/30,", "state": "NSW", "zip": "", "phone": "13 11 75", "fax": "13 11 75", "coordinates":[ 151.171529,-33.906415 ]},
{ "name": "Lane Cove", "city": "Lane Cove", "code": "274", "street": "131 Longueville Rd", "state": "NSW", "zip": "", "phone": "13 11 75", "fax": "13 11 75", "coordinates":[ 151.169875,-33.814918 ]},
{ "name": "Chatswood", "city": "Chatswood", "code": "226", "street": "SHOP 5", "state": "NSW", "zip": "", "phone": "13 11 75", "fax": "13 11 75", "coordinates":[ 151.182355,-33.796569 ]},
{ "name": "Eastgardens", "city": "Eastgardens", "code": "146", "street": "Shop 226 Westfield", "state": "NSW", "zip": "", "phone": "13 11 75", "fax": "13 11 75", "coordinates":[ 151.225921,-33.945041 ]},
{ "name": "Burwood", "city": "Burwood", "code": "222", "street": "Shop 126 Westfield Burwood", "state": "NSW", "zip": "", "phone": "13 11 75", "fax": "13 11 75", "coordinates":[ 151.106133,-33.874978 ]},
{ "name": "Brookvale", "city": "Brookvale", "code": "268", "street": "Shop 98", "state": "NSW", "zip": "", "phone": "13 11 75", "fax": "13 11 75", "coordinates":[ 151.266002,-33.767952 ]},
{ "name": "North Ryde", "city": "North Ryde", "code": "140", "street": "MACQUARIE CENTRE", "state": "NSW", "zip": "", "phone": "13 11 75", "fax": "13 11 75", "coordinates":[ 151.119943,-33.776777 ]},
{ "name": "EASTWOOD", "city": "EASTWOOD,", "code": "224", "street": "SHOP 1, 152 - 160 ROWE STREET", "state": "NSW", "zip": "", "phone": "13 11 75", "fax": "13 11 75", "coordinates":[ 151.081206,-33.791734 ]},
{ "name": "Hurstville", "city": "Hurstville", "code": "216", "street": "", "state": "NSW", "zip": "", "phone": "13 11 75", "fax": "13 11 75", "coordinates":[ 151.1041485,-33.9674814 ]},
{ "name": "BANKSTOWN BRANCH", "city": "SYDNEY", "code": "148", "street": "SHOP SP003, LEVEL 3, BANKSTOWN CENTRAL", "state": "NSW", "zip": "", "phone": "13 11 75", "fax": "13 11 75", "coordinates":[ 151.037767,-33.916552 ]},
{ "name": "Parramatta", "city": "Parramatta", "code": "205", "street": "Shop 5072/3 Westfield Shopping Town", "state": "NSW", "zip": "", "phone": "13 11 75", "fax": "13 11 75", "coordinates":[ 151.002148,-33.817734 ]},
{ "name": "Miranda", "city": "Miranda", "code": "273", "street": "Shop 1097, Westfield Shopping Centre", "state": "NSW", "zip": "", "phone": "13 11 75", "fax": "13 11 75", "coordinates":[ 151.100556,-34.035219 ]},
{ "name": "Baulkham Hills", "city": "Baulkham Hills", "code": "145", "street": "Shop 33,", "state": "NSW", "zip": "", "phone": "13 11 75", "fax": "13 11 75", "coordinates":[ 150.991678,-33.759038 ]},
{ "name": "Castle Hill", "city": "Castle Hill", "code": "208", "street": "Shop 254 Castle Towers Shopping Centre", "state": "NSW", "zip": "", "phone": "13 11 75", "fax": "13 11 75", "coordinates":[ 151.005169,-33.730991 ]},
{ "name": "Liverpool", "city": "Liverpool", "code": "235", "street": "Shop Shop 2091 Westfield Liverpool", "state": "NSW", "zip": "", "phone": "13 11 75", "fax": "13 11 75", "coordinates":[ 150.923175,-33.918447 ]},
{ "name": "Blacktown", "city": "Blacktown", "code": "144", "street": "Shop 1060,", "state": "NSW", "zip": "", "phone": "13 11 75", "fax": "13 11 75", "coordinates":[ 150.905863,-33.770323 ]},
{ "name": "Campbelltown", "city": "Campbelltown", "code": "223", "street": "SHOP 13 LVL 2 MACARTHER SQUARE SHOP CTRE", "state": "NSW", "zip": "", "phone": "13 11 75", "fax": "13 11 75", "coordinates":[ 150.798265,-34.07524 ]},
{ "name": "Penrith", "city": "Penrith", "code": "238", "street": "Shop L01, 54/55", "state": "NSW", "zip": "", "phone": "13 11 75", "fax": "13 11 75", "coordinates":[ 150.694063,-33.75121 ]},
{ "name": "Shellharbour", "city": "Shellharbour", "code": "240", "street": "SHOP 11, CITY CENTRE SHOPPING CENTRE", "state": "NSW", "zip": "", "phone": "13 11 75", "fax": "13 11 75", "coordinates":[ 150.836379,-34.563978 ]},
{ "name": "Charlestown", "city": "Charlestown", "code": "225", "street": "SHOP 10, HILLTOP PLAZA ARCADE", "state": "NSW", "zip": "", "phone": "13 11 75", "fax": "13 11 75", "coordinates":[ 151.696092,-32.961521 ]},
{ "name": "Orange", "city": "Orange", "code": "237", "street": "GROUND FLOOR", "state": "NSW", "zip": "", "phone": "13 11 75", "fax": "13 11 75", "coordinates":[ 149.094611,-33.282678 ]},
{ "name": "Canberra", "city": "Canberra City", "code": "2877", "street": "Shop 1A Katrine Building", "state": "ACT", "zip": "", "phone": "13 11 75", "fax": "13 11 75", "coordinates":[ 149.131486,-35.279223 ]},
{ "name": "Woden", "city": "Woden", "code": "245", "street": "UNIT 16, COSMOPOLITAN BUILDING", "state": "ACT", "zip": "", "phone": "13 11 75", "fax": "13 11 75", "coordinates":[ 149.085969,-35.344463 ]},
{ "name": "Dubbo", "city": "Dubbo", "code": "228", "street": "Shop 5,", "state": "NSW", "zip": "", "phone": "13 11 75", "fax": "13 11 75", "coordinates":[ 148.601516,-32.2489 ]},
{ "name": "TAMWORTH", "city": "Tamworth", "code": "241", "street": "345 PEEL STREET", "state": "NSW", "zip": "", "phone": "13 11 75", "fax": "13 11 75", "coordinates":[ 150.929717,-31.090873 ]},
{ "name": "Port Macquarie", "city": "Port Macquarie", "code": "239", "street": "SHOP 5", "state": "NSW", "zip": "", "phone": "13 11 75", "fax": "13 11 75", "coordinates":[ 152.908507,-31.432364 ]},
{ "name": "Wagga Wagga", "city": "Wagga Wagga", "code": "4964", "street": "", "state": "NSW", "zip": "", "phone": "13 11 75", "fax": "13 11 75", "coordinates":[ 147.369475,-35.114411 ]},
{ "name": "Coffs Harbour", "city": "COFFS HARBOUR,", "code": "1125", "street": "SHOP 5 COFFS CENTRAL SC", "state": "NSW", "zip": "", "phone": "13 11 75", "fax": "13 11 75", "coordinates":[ 153.115404,-30.297108 ]},
{ "name": "Albury", "city": "Albury", "code": "4971", "street": "", "state": "NSW", "zip": "", "phone": "13 11 75", "fax": "13 11 75", "coordinates":[ 146.915119,-36.08258 ]},
{ "name": "Griffith", "city": "Griffith", "code": "264", "street": "", "state": "NSW", "zip": "", "phone": "13 11 75", "fax": "13 11 75", "coordinates":[ 146.04406,-34.289267 ]},
{ "name": "Moree", "city": "Moree", "code": "217", "street": "", "state": "NSW", "zip": "", "phone": "13 11 75", "fax": "13 11 75", "coordinates":[ 149.840053,-29.463075 ]},
{ "name": "Stanthorpe", "city": "Stanthorpe", "code": "135", "street": "130 High Street", "state": "QLD", "zip": "", "phone": "13 11 75", "fax": "13 11 75", "coordinates":[ 151.934809,-28.654775 ]},
{ "name": "Lismore Square", "city": "Lismore", "code": "204", "street": "Lismore Shopping Square", "state": "NSW", "zip": "", "phone": "13 11 75", "fax": "13 11 75", "coordinates":[ 153.286673,-28.81012 ]},
{ "name": "Goondiwindi", "city": "Goondiwindi", "code": "133", "street": "", "state": "QLD", "zip": "", "phone": "13 11 75", "fax": "13 11 75", "coordinates":[ 150.307061,-28.547117 ]},
{ "name": "Ballina", "city": "Ballina", "code": "201", "street": "118 - 120 River Street", "state": "NSW", "zip": "", "phone": "13 11 75", "fax": "13 11 75", "coordinates":[ 153.56053,-28.870709 ]},
{ "name": "Warwick", "city": "Warwick", "code": "58", "street": "80 Palmerin Street", "state": "QLD", "zip": "", "phone": "13 11 75", "fax": "13 11 75", "coordinates":[ 152.0329104,-28.2152999 ]},
{ "name": "Boonah", "city": "Boonah", "code": "626", "street": "Boonah Business Supplies", "state": "QLD", "zip": "", "phone": "13 11 75", "fax": "13 11 75", "coordinates":[ 152.682308,-27.996133 ]},
{ "name": "Tweed Heads", "city": "Tweed Heads South", "code": "1067", "street": "Shop 75 Tweed City Shopping Centre", "state": "NSW", "zip": "", "phone": "13 11 75", "fax": "13 11 75", "coordinates":[ 153.544982,-28.200379 ]},
{ "name": "Coolangatta", "city": "Coolangatta", "code": "37", "street": "", "state": "QLD", "zip": "", "phone": "13 11 75", "fax": "13 11 75", "coordinates":[ 153.5368132,-28.1684236 ]},
{ "name": "Elanora", "city": "Elanora", "code": "1063", "street": "Shop 68 The Pines Shopping Centre", "state": "QLD", "zip": "", "phone": "13 11 75", "fax": "13 11 75", "coordinates":[ 153.469546,-28.135016 ]},
{ "name": "Beaudesert", "city": "Beaudesert", "code": "1048", "street": "", "state": "QLD", "zip": "", "phone": "13 11 75", "fax": "13 11 75", "coordinates":[ 152.995734,-27.988746 ]},
{ "name": "Burleigh Town Centre", "city": "Burleigh Heads", "code": "34", "street": "Shop 88a & 88b Town Market", "state": "QLD", "zip": "", "phone": "13 11 75", "fax": "13 11 75", "coordinates":[ 153.440669,-28.097919 ]},
{ "name": "Robina", "city": "Robina", "code": "121", "street": "19 ROBINA TOWN CENTRE DRIVE", "state": "QLD", "zip": "", "phone": "13 11 75", "fax": "13 11 75", "coordinates":[ 153.385373,-28.07769 ]},
{ "name": "Mermaid Waters", "city": "Mermaid Waters", "code": "1195", "street": "Shop B 2a, Q-super Centre", "state": "QLD", "zip": "", "phone": "13 11 75", "fax": "13 11 75", "coordinates":[ 153.408096,-28.044174 ]},
{ "name": "Pacific Fair", "city": "Broadbeach", "code": "1061", "street": "SHOPS 59B, PACIFIC FAIR SHP'G CENTRE", "state": "QLD", "zip": "", "phone": "13 11 75", "fax": "13 11 75", "coordinates":[ 153.428847,-28.036231 ]},
{ "name": "Nerang", "city": "Nerang", "code": "1064", "street": "SHOP 44, MY CENTRE", "state": "QLD", "zip": "", "phone": "13 11 75", "fax": "13 11 75", "coordinates":[ 153.338926,-27.997836 ]},
{ "name": "Surfers Paradise", "city": "Surfers Parsdise", "code": "1054", "street": "Shops10-12 Chevron Renaissance", "state": "QLD", "zip": "", "phone": "13 11 75", "fax": "13 11 75", "coordinates":[ 153.428388,-27.999444 ]},
{ "name": "Ashmore City", "city": "Ashmore", "code": "1056", "street": "SHOP 8, ASHMORE CITY SHOPPING CENTRE", "state": "QLD", "zip": "", "phone": "13 11 75", "fax": "13 11 75", "coordinates":[ 153.380542,-27.977707 ]},
{ "name": "Southport Park", "city": "Southport", "code": "1057", "street": "Shop 41, Southport Park Shopping Centre", "state": "QLD", "zip": "", "phone": "13 11 75", "fax": "13 11 75", "coordinates":[ 153.410248,-27.985643 ]},
{ "name": "Mt Tamborine", "city": "North Tamborine", "code": "646", "street": "Shop 1b", "state": "QLD", "zip": "", "phone": "13 11 75", "fax": "13 11 75", "coordinates":[ 153.185547,-27.925644 ]},
{ "name": "Southport", "city": "Southport", "code": "1053", "street": "73 SCARBOROUGH STREET", "state": "QLD", "zip": "", "phone": "13 11 75", "fax": "13 11 75", "coordinates":[ 153.4146872,-27.9686579 ]},
{ "name": "Helensvale", "city": "Helensvale", "code": "1046", "street": "Shop 1009, Westfield", "state": "QLD", "zip": "", "phone": "13 11 75", "fax": "13 11 75", "coordinates":[ 153.336417,-27.925791 ]},
{ "name": "Runaway Bay", "city": "Runaway Bay", "code": "1055", "street": "Shop 5, Runaway Bay Shopping Centre", "state": "QLD", "zip": "", "phone": "13 11 75", "fax": "13 11 75", "coordinates":[ 153.40176,-27.913529 ]},
{ "name": "St George", "city": "St George", "code": "643", "street": "", "state": "QLD", "zip": "", "phone": "13 11 75", "fax": "13 11 75", "coordinates":[ 148.57941,-28.034988 ]},
{ "name": "Glen Waverley", "city": "Glen Waverley", "code": "1130", "street": "Shop 1 & 2, 273-275 Springvale Road", "state": "VIC", "zip": "", "phone": "13 11 75", "fax": "13 11 75", "coordinates":[ 145.165414,-37.879776 ]},
{ "name": "Clifford Gardens", "city": "Toowoomba", "code": "1085", "street": "Shop 67 Clifford Gardens Shp'g Centre", "state": "QLD", "zip": "", "phone": "13 11 75", "fax": "13 11 75", "coordinates":[ 151.933325,-27.565025 ]},
{ "name": "216 Margaret St Toowoomba", "city": "Toowoomba", "code": "1084", "street": "GROUND FLOOR", "state": "QLD", "zip": "", "phone": "13 11 75", "fax": "13 11 75", "coordinates":[ 151.952301,-27.561072 ]},
{ "name": "Bendigo", "city": "Bendigo", "code": "221", "street": "97 Williamson St", "state": "VIC", "zip": "", "phone": "13 11 75", "fax": "13 11 75", "coordinates":[ 144.284091,-36.761785 ]},
{ "name": "Dandenong", "city": "Dandenong", "code": "1135", "street": "Shop 1", "state": "VIC", "zip": "", "phone": "13 11 75", "fax": "13 11 75", "coordinates":[ 145.214733,-37.987498 ]},
{ "name": "Camberwell", "city": "Camberwell", "code": "1134", "street": "208-210 Camberwell Road", "state": "VIC", "zip": "", "phone": "13 11 75", "fax": "13 11 75", "coordinates":[ 145.056073,-37.830879 ]},
{ "name": "Gatton", "city": "Gatton", "code": "620", "street": "", "state": "QLD", "zip": "", "phone": "13 11 75", "fax": "13 11 75", "coordinates":[ 152.278683,-27.557335 ]},
{ "name": "Beenleigh", "city": "Beenleigh", "code": "1089", "street": "13 MAIN STREET", "state": "QLD", "zip": "", "phone": "13 11 75", "fax": "13 11 75", "coordinates":[ 153.20262,-27.716891 ]},
{ "name": "Springfield", "city": "SPRINGFIELD CENTRAL", "code": "1155", "street": "ORION SPRINGFIELD CENTRAL", "state": "QLD", "zip": "", "phone": "13 11 75", "fax": "13 11 75", "coordinates":[ 152.918137,-27.653148 ]},
{ "name": "Ipswich", "city": "NORTH IPSWICH", "code": "1071", "street": "SHOP 3, RIVER LINK SHOPPING CENTRE", "state": "QLD", "zip": "", "phone": "13 11 75", "fax": "13 11 75", "coordinates":[ 152.758377,-27.607595 ]},
{ "name": "Browns Plains", "city": "Browns Plains", "code": "87", "street": "SHOPS 2, 3 & 4", "state": "QLD", "zip": "", "phone": "13 11 75", "fax": "13 11 75", "coordinates":[ 153.041203,-27.660463 ]},
{ "name": "303 COLLINS ST", "city": "Melbourne", "code": "149", "street": "", "state": "VIC", "zip": "", "phone": "13 11 75", "fax": "13 11 75", "coordinates":[ 144.963736,-37.816441 ]},
{ "name": "Loganholme", "city": "Loganholme", "code": "1093", "street": "Shop 107, Logan Hyperdome", "state": "QLD", "zip": "", "phone": "13 11 75", "fax": "13 11 75", "coordinates":[ 153.172177,-27.659061 ]},
{ "name": "MARIBYRNONG BRANCH", "city": "MARIBYRNONG, MELBOURNE", "code": "1129", "street": "3134-3137 L3 HIGHPOINT SHOPPING CENTRE", "state": "VIC", "zip": "", "phone": "13 11 75", "fax": "13 11 75", "coordinates":[ 144.888597,-37.77339 ]},
{ "name": "Highfields", "city": "Toowoomba", "code": "98", "street": "Tenancy 5, Plaza Circle", "state": "QLD", "zip": "", "phone": "13 11 75", "fax": "13 11 75", "coordinates":[ 151.959361,-27.457483 ]},
{ "name": "Inala", "city": "Inala", "code": "1073", "street": "SHOP 40, INALA PLAZA SHOPPING CENTRE", "state": "QLD", "zip": "", "phone": "13 11 75", "fax": "13 11 75", "coordinates":[ 152.973498,-27.597572 ]},
{ "name": "Calamvale", "city": "Calamvale", "code": "89", "street": "Shop T34 - Calamvale Shopping Centre", "state": "QLD", "zip": "", "phone": "13 11 75", "fax": "13 11 75", "coordinates":[ 153.054175,-27.612793 ]},
{ "name": "Springwood", "city": "Springwood", "code": "1090", "street": "", "state": "QLD", "zip": "", "phone": "13 11 75", "fax": "13 11 75", "coordinates":[ 153.123353,-27.61179 ]},
{ "name": "Mt Ommaney", "city": "Mt Ommaney", "code": "1072", "street": "Shop 79 Mt Ommaney Centre", "state": "QLD", "zip": "", "phone": "13 11 75", "fax": "13 11 75", "coordinates":[ 152.93721,-27.549596 ]},
{ "name": "SUNNYBANK", "city": "SUNNYBANK", "code": "53", "street": "SHOP 12, TIME SQUARE SHOPPING CENTRE", "state": "QLD", "zip": "", "phone": "13 11 75", "fax": "13 11 75", "coordinates":[ 153.061093,-27.571318 ]},
{ "name": "GARDEN CITY", "city": "Upper Mt Gravatt", "code": "1076", "street": "SHOP 1044, GARDEN CITY SHOPPING CENTRE", "state": "QLD", "zip": "", "phone": "13 11 75", "fax": "13 11 75", "coordinates":[ 153.083935,-27.563126 ]},
{ "name": "Rocklea (Formerly Corinda)", "city": "Rocklea", "code": "1075", "street": "(JUST OFF IPSWICH RD ON FAIRFIELD RD)", "state": "QLD", "zip": "", "phone": "13 11 75", "fax": "13 11 75", "coordinates":[ 153.011205,-27.542295 ]},
{ "name": "Victoria Point", "city": "Victoria Point", "code": "4018", "street": "Town Centre Shop 25", "state": "QLD", "zip": "", "phone": "13 11 75", "fax": "13 11 75", "coordinates":[ 153.283929,-27.586897 ]},
{ "name": "Kenmore", "city": "Kenmore", "code": "1070", "street": "Shops 54 & 54a Kenmore Village", "state": "QLD", "zip": "", "phone": "13 11 75", "fax": "13 11 75", "coordinates":[ 152.938966,-27.506708 ]},
{ "name": "MT GRAVATT", "city": "MT GRAVATT", "code": "5310", "street": "TENANCY 6, HOMEMAKER CENTRE", "state": "QLD", "zip": "", "phone": "13 11 75", "fax": "13 11 75", "coordinates":[ 153.073039,-27.530029 ]},
{ "name": "Indooroopilly", "city": "Indooroopilly", "code": "79", "street": "SHOP 1003 L1, INDOOROOPILLY SHOPPINGTOWN", "state": "QLD", "zip": "", "phone": "13 11 75", "fax": "13 11 75", "coordinates":[ 152.972796,-27.499022 ]},
{ "name": "Stones Corner", "city": "Stones Corner", "code": "1029", "street": "", "state": "QLD", "zip": "", "phone": "13 11 75", "fax": "13 11 75", "coordinates":[ 153.046882,-27.498573 ]},
{ "name": "Toowong", "city": "Toowong", "code": "1023", "street": "TENNANCY L6, LEVEL 1, TOOWONG VILLAGE", "state": "QLD", "zip": "", "phone": "13 11 75", "fax": "13 11 75", "coordinates":[ 152.993153,-27.48537 ]},
{ "name": "Carindale", "city": "CARINDALE", "code": "26", "street": "WESTFIELD CARINDALE", "state": "QLD", "zip": "", "phone": "13 11 75", "fax": "13 11 75", "coordinates":[ 153.101252,-27.503674 ]},
{ "name": "Capalaba Park", "city": "Capalaba", "code": "1080", "street": "Capalaba Park Shopping Centre", "state": "QLD", "zip": "", "phone": "13 11 75", "fax": "13 11 75", "coordinates":[ 153.19033,-27.523619 ]},
{ "name": "West End", "city": "West End", "code": "1030", "street": "", "state": "QLD", "zip": "", "phone": "13 11 75", "fax": "13 11 75", "coordinates":[ 153.012485,-27.479413 ]},
{ "name": "Brisbane Square", "city": "Brisbane", "code": "51", "street": "Retail 7,", "state": "QLD", "zip": "", "phone": "13 11 75", "fax": "13 11 75", "coordinates":[ 153.0232644,-27.470734 ]},
{ "name": "Cleveland", "city": "CLEVELAND", "code": "1082", "street": "SHOP 67C STOCKLANDS CLEVELAND", "state": "QLD", "zip": "", "phone": "13 11 75", "fax": "13 11 75", "coordinates":[ 153.269215,-27.525874 ]},
{ "name": "243 EDWARD STREET", "city": "Brisbane", "code": "1016", "street": "", "state": "QLD", "zip": "", "phone": "13 11 75", "fax": "13 11 75", "coordinates":[ 153.0264,-27.4676 ]},
{ "name": "New Farm", "city": "New Farm", "code": "159", "street": "Shop 23 Merthyr Village Shopping Centre", "state": "QLD", "zip": "", "phone": "13 11 75", "fax": "13 11 75", "coordinates":[ 153.046716,-27.467431 ]},
{ "name": "The Gap", "city": "The Gap", "code": "1025", "street": "", "state": "QLD", "zip": "", "phone": "13 11 75", "fax": "13 11 75", "coordinates":[ 152.9524071,-27.4451695 ]},
{ "name": "Cannon Hill", "city": "Cannon Hill", "code": "1028", "street": "Shop 38 Cannon Hill Plaza", "state": "QLD", "zip": "", "phone": "13 11 75", "fax": "13 11 75", "coordinates":[ 153.098472,-27.471019 ]},
{ "name": "Ashgrove", "city": "Ashgrove", "code": "1022", "street": "", "state": "QLD", "zip": "", "phone": "13 11 75", "fax": "13 11 75", "coordinates":[ 152.992235,-27.445355 ]},
{ "name": "NEWSTEAD", "city": "NEWSTEAD", "code": "1021", "street": "76 SKYRING TERRACE", "state": "QLD", "zip": "", "phone": "13 11 75", "fax": "13 11 75", "coordinates":[ 153.045457,-27.45 ]},
{ "name": "HAMILTON BRANCH", "city": "Ascot", "code": "1019", "street": "UNIT 2", "state": "QLD", "zip": "", "phone": "13 11 75", "fax": "13 11 75", "coordinates":[ 153.06526,-27.4354 ]},
{ "name": "Brookside", "city": "Mitchelton", "code": "88", "street": "Shop 99 Brookside Shopping Centre", "state": "QLD", "zip": "", "phone": "13 11 75", "fax": "13 11 75", "coordinates":[ 152.979259,-27.408794 ]},
{ "name": "Stafford", "city": "Stafford", "code": "1008", "street": "Shop 2 Stafford Shopping Centre", "state": "QLD", "zip": "", "phone": "13 11 75", "fax": "13 11 75", "coordinates":[ 153.012956,-27.411154 ]},
{ "name": "Wynnum", "city": "Wynnum", "code": "23", "street": "", "state": "QLD", "zip": "", "phone": "13 11 75", "fax": "13 11 75", "coordinates":[ 153.1739294,-27.4447472 ]},
{ "name": "Toombul", "city": "TOOMBUL", "code": "78", "street": "SHOP 56 CENTRO TOOMBUL", "state": "QLD", "zip": "", "phone": "13 11 75", "fax": "13 11 75", "coordinates":[ 153.060836,-27.409313 ]},
{ "name": "Chermside", "city": "Chermside", "code": "1011", "street": "Shop 90, Chermside Shopping Centre", "state": "QLD", "zip": "", "phone": "13 11 75", "fax": "13 11 75", "coordinates":[ 153.031746,-27.385012 ]},
{ "name": "Dalby", "city": "Dalby", "code": "67", "street": "", "state": "QLD", "zip": "", "phone": "13 11 75", "fax": "13 11 75", "coordinates":[ 151.2646029,-27.1828392 ]},
{ "name": "Aspley", "city": "Aspley", "code": "1009", "street": "Shop 1 Pick-n-pay Hypermarket", "state": "QLD", "zip": "", "phone": "13 11 75", "fax": "13 11 75", "coordinates":[ 153.013521,-27.361283 ]},
{ "name": "Virginia", "city": "Virginia", "code": "1014", "street": "", "state": "QLD", "zip": "", "phone": "13 11 75", "fax": "13 11 75", "coordinates":[ 153.057674,-27.370201 ]},
{ "name": "Albany Creek", "city": "Albany Creek", "code": "108", "street": "Shop 22-23 Albany Creek Shopping Centre", "state": "QLD", "zip": "", "phone": "13 11 75", "fax": "13 11 75", "coordinates":[ 152.969342,-27.346514 ]},
{ "name": "Strathpine", "city": "Strathpine", "code": "71", "street": "SHOP 1", "state": "QLD", "zip": "", "phone": "13 11 75", "fax": "13 11 75", "coordinates":[ 152.988566,-27.303321 ]},
{ "name": "Sandgate", "city": "Sandgate", "code": "1041", "street": "", "state": "QLD", "zip": "", "phone": "13 11 75", "fax": "13 11 75", "coordinates":[ 153.0688558,-27.3190982 ]},
{ "name": "North Lakes", "city": "Mango Hill", "code": "1002", "street": "SHOP E6, WESTFIELD NORTH LAKES", "state": "QLD", "zip": "", "phone": "13 11 75", "fax": "13 11 75", "coordinates":[ 153.016513,-27.24031 ]},
{ "name": "Kippa-Ring", "city": "Kippa Ring", "code": "1044", "street": "Shop M6/M7, Peninsula Fair Shopping Cn", "state": "QLD", "zip": "", "phone": "13 11 75", "fax": "13 11 75", "coordinates":[ 153.088209,-27.226394 ]},
{ "name": "Burpengary", "city": "Burpengary", "code": "123", "street": "Shop 13 - 14 Burpengary Plaza", "state": "QLD", "zip": "", "phone": "13 11 75", "fax": "13 11 75", "coordinates":[ 152.975271,-27.155633 ]},
{ "name": "Morayfield", "city": "Morayfield", "code": "115", "street": "Shop 8 Morayfield Shopping Centre", "state": "QLD", "zip": "", "phone": "13 11 75", "fax": "13 11 75", "coordinates":[ 152.948466,-27.10473 ]},
{ "name": "Bribie Island", "city": "Bribie Island", "code": "132", "street": "Shop 7, Bribie Island Shopping Centre", "state": "QLD", "zip": "", "phone": "13 11 75", "fax": "13 11 75", "coordinates":[ 153.156714,-27.064131 ]},
{ "name": "Chinchilla", "city": "Chinchilla", "code": "623", "street": "", "state": "QLD", "zip": "", "phone": "13 11 75", "fax": "13 11 75", "coordinates":[ 150.624527,-26.739718 ]},
{ "name": "Beerwah", "city": "Beerwah", "code": "1003", "street": "Shop 8 Beerwah Shop Village", "state": "QLD", "zip": "", "phone": "13 11 75", "fax": "13 11 75", "coordinates":[ 152.957747,-26.858395 ]},
{ "name": "Maleny", "city": "Maleny", "code": "137", "street": "Shop 2, Riverside Shopping Ctr", "state": "QLD", "zip": "", "phone": "13 11 75", "fax": "13 11 75", "coordinates":[ 152.853228,-26.758193 ]},
{ "name": "Caloundra", "city": "CALOUNDRA", "code": "1033", "street": "Shops 2 Centrepoint Plaza", "state": "QLD", "zip": "", "phone": "13 11 75", "fax": "13 11 75", "coordinates":[ 153.132488,-26.804906 ]},
{ "name": "Miles", "city": "Miles", "code": "266", "street": "", "state": "QLD", "zip": "", "phone": "13 11 75", "fax": "13 11 75", "coordinates":[ 150.186065,-26.659263 ]},
{ "name": "Chancellor Park", "city": "Sippy Downs", "code": "130", "street": "Shop 3 Chancellor Village Blvd", "state": "QLD", "zip": "", "phone": "13 11 75", "fax": "13 11 75", "coordinates":[ 153.048884,-26.718133 ]},
{ "name": "Kingaroy", "city": "Kingaroy", "code": "68", "street": "172 Haly Street", "state": "QLD", "zip": "", "phone": "13 11 75", "fax": "13 11 75", "coordinates":[ 151.838387,-26.539045 ]},
{ "name": "Buderim", "city": "BUDERIM", "code": "1038", "street": "Shop 2", "state": "QLD", "zip": "", "phone": "13 11 75", "fax": "13 11 75", "coordinates":[ 153.049924,-26.686636 ]},
{ "name": "Kawana Waters", "city": "Buddina", "code": "1037", "street": "SHOP 389/390, KAWANA SHOPPING WORLD", "state": "QLD", "zip": "", "phone": "13 11 75", "fax": "13 11 75", "coordinates":[ 153.130534,-26.702051 ]},
{ "name": "Maroochydore", "city": "Maroochydore", "code": "1035", "street": "", "state": "QLD", "zip": "", "phone": "13 11 75", "fax": "13 11 75", "coordinates":[ 153.0894127,-26.6525661 ]},
{ "name": "Nambour", "city": "NAMBOUR", "code": "1034", "street": "Lowan House", "state": "QLD", "zip": "", "phone": "13 11 75", "fax": "13 11 75", "coordinates":[ 152.960658,-26.625997 ]},
{ "name": "Coolum", "city": "COOLUM BEACH", "code": "1039", "street": "SHOP 24 COOLUM VILLAGE", "state": "QLD", "zip": "", "phone": "13 11 75", "fax": "13 11 75", "coordinates":[ 153.088385,-26.525969 ]},
{ "name": "Roma", "city": "Roma", "code": "63", "street": "Shop 6 & 7 Westlands Shopping Centre", "state": "QLD", "zip": "", "phone": "13 11 75", "fax": "13 11 75", "coordinates":[ 148.79024,-26.573343 ]},
{ "name": "Noosa Civic", "city": "Noosaville", "code": "94", "street": "Shop Bb05/06, Noosa Civic", "state": "QLD", "zip": "", "phone": "13 11 75", "fax": "13 11 75", "coordinates":[ 153.047725,-26.415183 ]},
{ "name": "Gympie", "city": "Gympie", "code": "1114", "street": "SHOPS 8/9 GOLDFIELDS PLAZA", "state": "QLD", "zip": "", "phone": "13 11 75", "fax": "13 11 75", "coordinates":[ 152.661595,-26.188316 ]},
{ "name": "Mundubbera", "city": "Mundubbera", "code": "4929", "street": "", "state": "QLD", "zip": "", "phone": "13 11 75", "fax": "13 11 75", "coordinates":[ 151.29783,-25.590998 ]},
{ "name": "Warrnambool", "city": "Warrnambool", "code": "277", "street": "", "state": "VIC", "zip": "", "phone": "13 11 75", "fax": "13 11 75", "coordinates":[ 142.484666,-38.383935 ]},
{ "name": "Maryborough", "city": "Maryborough", "code": "1115", "street": "", "state": "QLD", "zip": "", "phone": "13 11 75", "fax": "13 11 75", "coordinates":[ 152.7018308,-25.5387306 ]},
{ "name": "Charleville", "city": "Charleville", "code": "651", "street": "", "state": "QLD", "zip": "", "phone": "13 11 75", "fax": "13 11 75", "coordinates":[ 146.240154,-26.40163 ]},
{ "name": "Childers", "city": "Childers", "code": "612", "street": "", "state": "QLD", "zip": "", "phone": "13 11 75", "fax": "13 11 75", "coordinates":[ 152.278184,-25.236594 ]},
{ "name": "Hervey Bay", "city": "Pialba", "code": "1116", "street": "Shop 3 Central Avenue Plaza", "state": "QLD", "zip": "", "phone": "13 11 75", "fax": "13 11 75", "coordinates":[ 152.833684,-25.287915 ]},
{ "name": "Monto", "city": "Monto", "code": "614", "street": "", "state": "QLD", "zip": "", "phone": "13 11 75", "fax": "13 11 75", "coordinates":[ 151.121975,-24.863172 ]},
{ "name": "Bundaberg Sugarlands", "city": "Bundaberg", "code": "70", "street": "SHOP 408 SUGARLANDS SHOPPING CENTRE", "state": "QLD", "zip": "", "phone": "13 11 75", "fax": "13 11 75", "coordinates":[ 152.318982,-24.887426 ]},
{ "name": "Bourbong St Bundaberg", "city": "Bundaberg", "code": "1113", "street": "", "state": "QLD", "zip": "", "phone": "13 11 75", "fax": "13 11 75", "coordinates":[ 152.349624,-24.866069 ]},
{ "name": "Biloela", "city": "Biloela", "code": "134", "street": "Shop 2,", "state": "QLD", "zip": "", "phone": "13 11 75", "fax": "13 11 75", "coordinates":[ 150.5131138,-24.4014946 ]},
{ "name": "HOBART BRANCH", "city": "Hobart", "code": "232", "street": "", "state": "TAS", "zip": "", "phone": "13 11 75", "fax": "13 11 75", "coordinates":[ 147.326764,-42.881782 ]},
{ "name": "Gladstone", "city": "Gladstone", "code": "1112", "street": "Shop 26, Gladstone Shopping Centre", "state": "QLD", "zip": "", "phone": "13 11 75", "fax": "13 11 75", "coordinates":[ 151.248716,-23.854717 ]},
{ "name": "Adelaide", "city": "Adelaide", "code": "4013", "street": "SHOP 1A", "state": "SA", "zip": "", "phone": "13 11 75", "fax": "13 11 75", "coordinates":[ 138.602604,-34.92438 ]},
{ "name": "Rockhampton City", "city": "Rockhampton", "code": "1110", "street": "SUNCORP HOUSE, 18 ARCHER STREET", "state": "QLD", "zip": "", "phone": "13 11 75", "fax": "13 11 75", "coordinates":[ 150.509764,-23.375184 ]},
{ "name": "NORTH ROCKHAMPTON", "city": "ROCKHAMPTON NORTH", "code": "5", "street": "SHOP 112A, ROCKHAMPTON SHOPPING FAIR", "state": "QLD", "zip": "", "phone": "13 11 75", "fax": "13 11 75", "coordinates":[ 150.52302,-23.353133 ]},
{ "name": "Emerald", "city": "Emerald", "code": "1095", "street": "", "state": "QLD", "zip": "", "phone": "13 11 75", "fax": "13 11 75", "coordinates":[ 148.162412,-23.526493 ]},
{ "name": "Yeppoon", "city": "Yeppoon", "code": "118", "street": "Shop 26 Yepoon Central Shopping Centre", "state": "QLD", "zip": "", "phone": "13 11 75", "fax": "13 11 75", "coordinates":[ 150.737173,-23.132225 ]},
{ "name": "Longreach", "city": "Longreach", "code": "1094", "street": "", "state": "QLD", "zip": "", "phone": "13 11 75", "fax": "13 11 75", "coordinates":[ 144.2485241,-23.4424866 ]},
{ "name": "VICTORIA STREET BRANCH", "city": "Mackay", "code": "1106", "street": "123 VICTORIA STREET", "state": "QLD", "zip": "", "phone": "13 11 75", "fax": "13 11 75", "coordinates":[ 149.184122,-21.141069 ]},
{ "name": "Canelands Mackay", "city": "Mackay", "code": "69", "street": "SHOP 123 CANELANDS CENTRAL", "state": "QLD", "zip": "", "phone": "13 11 75", "fax": "13 11 75", "coordinates":[ 149.177104,-21.138809 ]},
{ "name": "Whitsunday", "city": "Cannonvale", "code": "138", "street": "Shop 1a, Whitsunday Shopping Centre", "state": "QLD", "zip": "", "phone": "13 11 75", "fax": "13 11 75", "coordinates":[ 148.699802,-20.278006 ]},
{ "name": "CHARTERS TOWERS BUS CTR & RETAIL BRANCH", "city": "Charters Towers", "code": "606", "street": "SHOP L4, TOWN PLAZA SHOPPING CENTRE", "state": "QLD", "zip": "", "phone": "13 11 75", "fax": "13 11 75", "coordinates":[ 146.259026,-20.076197 ]},
{ "name": "Castletown Retail", "city": "Townsville", "code": "275", "street": "Shop 122, Castletown Shoppingworld", "state": "QLD", "zip": "", "phone": "13 11 75", "fax": "13 11 75", "coordinates":[ 146.790382,-19.727484 ]},
{ "name": "Ayr", "city": "Ayr", "code": "62", "street": "", "state": "QLD", "zip": "", "phone": "13 11 75", "fax": "13 11 75", "coordinates":[ 147.405716,-19.576007 ]},
{ "name": "Richmond", "city": "Richmond", "code": "653", "street": "", "state": "QLD", "zip": "", "phone": "13 11 75", "fax": "13 11 75", "coordinates":[ 143.141707,-20.729055 ]},
{ "name": "Fairfield Waters", "city": "IDALIA", "code": "129", "street": "2-30 LAKESIDE DRIVE", "state": "QLD", "zip": "", "phone": "13 11 75", "fax": "13 11 75", "coordinates":[ 146.81777,-19.315462 ]},
{ "name": "Townsville Willows", "city": "KIRWAN", "code": "1109", "street": "SHOP 79A WILLOWS SHOPPINGTOWN", "state": "QLD", "zip": "", "phone": "13 11 75", "fax": "13 11 75", "coordinates":[ 146.72654,-19.316505 ]},
{ "name": "AITKENVALE", "city": "AITKENVALE", "code": "1107", "street": "SHOP 1", "state": "QLD", "zip": "", "phone": "13 11 75", "fax": "13 11 75", "coordinates":[ 146.76872,-19.297116 ]},
{ "name": "Townsville Flinders St", "city": "Townsville", "code": "1104", "street": "", "state": "QLD", "zip": "", "phone": "13 11 75", "fax": "13 11 75", "coordinates":[ 146.816144,-19.261234 ]},
{ "name": "JULIA CREEK", "city": "JULIA CREEK", "code": "165", "street": "52 BURKE STREET", "state": "QLD", "zip": "", "phone": "13 11 75", "fax": "13 11 75", "coordinates":[ 141.744683,-20.657563 ]},
{ "name": "Ingham", "city": "Ingham", "code": "66", "street": "", "state": "QLD", "zip": "", "phone": "13 11 75", "fax": "13 11 75", "coordinates":[ 146.1527043,-18.6506581 ]},
{ "name": "MT ISA", "city": "Mount Isa", "code": "60", "street": "SHOP 11 K-MART PLAZA", "state": "QLD", "zip": "", "phone": "13 11 75", "fax": "13 11 75", "coordinates":[ 139.494929,-20.725577 ]},
{ "name": "Innisfail", "city": "Innisfail", "code": "36", "street": "", "state": "QLD", "zip": "", "phone": "13 11 75", "fax": "13 11 75", "coordinates":[ 146.029477,-17.524181 ]},
{ "name": "Atherton", "city": "Atherton", "code": "131", "street": "", "state": "QLD", "zip": "", "phone": "13 11 75", "fax": "13 11 75", "coordinates":[ 145.4774603,-17.2639273 ]},
{ "name": "MT SHERIDAN", "city": "MT SHERIDAN", "code": "1119", "street": "SHOP 53 MOUNT SHERIDAN PLAZA", "state": "QLD", "zip": "", "phone": "13 11 75", "fax": "13 11 75", "coordinates":[ 145.740526,-16.990637 ]},
{ "name": "Earlville Cairns", "city": "Cairns", "code": "76", "street": "Shop 3 Earlville Shoppingtown", "state": "QLD", "zip": "", "phone": "13 11 75", "fax": "13 11 75", "coordinates":[ 145.739312,-16.944446 ]},
{ "name": "Cairns Central", "city": "Cairns", "code": "54", "street": "Shops 113&114 Cairns Central Shopping", "state": "QLD", "zip": "", "phone": "13 11 75", "fax": "13 11 75", "coordinates":[ 145.771337,-16.924291 ]},
{ "name": "Mareeba", "city": "Mareeba", "code": "136", "street": "", "state": "QLD", "zip": "", "phone": "13 11 75", "fax": "13 11 75", "coordinates":[ 145.422261,-16.993477 ]},
{ "name": "Cairns Smithfield", "city": "Cairns", "code": "12", "street": "Shop # 115, Smithfiled Shopping Centre", "state": "QLD", "zip": "", "phone": "13 11 75", "fax": "13 11 75", "coordinates":[ 145.691736,-16.837173 ]},
